lat,lon,sys_time,time,pitch,roll,yaw,pitch_rate,roll_rate,yaw_rate,airspeed,altitude,ground_speed,heading,roll_rate_setpoint,roll_setpoint,pitch_rate_setpoint,pitch_setpoint,throttle_setpoint,roll_kd,roll_kp,pitch_kd,pitch_kp,yaw_kd,yaw_kp,path_checksum,last_command_sent0,last_command_sent1,last_command_sent2,last_command_sent3,battery_level1,battery_level2,ch1in,ch2in,ch3in,ch4in,ch5in,ch6in,ch7in,ch8in,ch1out,ch2out,ch3out,ch4out,ch5out,ch6out,ch7out,ch8out,camera_status,yaw_rate_setpoint,heading_setpoint,altitude_setpoint,flap_setpoint,wireless_connection,autopilot_active,gps_status,waypoint_count,waypoint_index,path_following,roll_ki,pitch_ki,yaw_ki,heading_kd,heading_kp,heading_ki,altitude_kd,altitude_kp,altitude_ki,throttle_kd,throttle_kp,throttle_ki,flap_kd,flap_kp,flap_ki,path_gain,orbit_gain,autonomousLevel,startup_error_codes,startupSettings,probe_status,RSSI
49.91181333314065, -98.26869833335125, 47101, 165149.703125, 8.554184913635254, -0.9934974908828735, -9.81908130645752, 0.10157405585050583, 0.0493316650390625, -0.050354670733213425, 23.72999382019043, -3.875, 0.0, 91, 0, 0, 0, 0, -1024, , , -100
49.91181333314065, -98.26869833335125, 47101, 165149.703125, 8.554184913635254, -0.9934974908828735, -9.81908130645752, 0.10157405585050583, 0.0493316650390625, -0.050354670733213425, 23.72999382019043, -3.875, 0.0, 91, 0, 0, 0, 0, -1024, 3.0, 4.800000190734863, 3.5, 1.600000023841858, 3.5, 1.0, 0.0, 1, 0, 0, 0, 97, 100, -299, -114, -928, -121, -28066, -3072, -3072, -398, 0, 0, -1024, 0, 0, 0, 0, 0, 0, 0, 0, 0, -1024, 0, 1, 25, 0, 73, 0, , -100
49.91181333314065, -98.26869833335125, 47101, 165149.703125, 8.554184913635254, -0.9934974908828735, -9.81908130645752, 0.10157405585050583, 0.0493316650390625, -0.050354670733213425, 23.72999382019043, -3.875, 0.0, 91, 0, 0, 0, 0, -1024, 3.0, 4.800000190734863, 3.5, 1.600000023841858, 3.5, 1.0, 0.0, 1, 0, 0, 0, 97, 100, -299, -114, -928, -121, -28066, -3072, -3072, -398, 0, 0, -1024, 0, 0, 0, 0, 0, 0, 0, 0, 0, -1024, 0, 1, 25, 0, 73, 0, 0.0, 0.0, 0.0, 5.0, 2.0, 0.0, 0.0, 1.5, 0.0, 0.0, 1.0, 0.0, 0.0, 1.0, 0.0, 0.009999999776482582, 1.0, 0, 3, 0, 0, -100
49.91181333314065, -98.26869833335125, 48460, 165151.09375, 9.28155517578125, -1.0664691925048828, -8.951396942138672, 0.07212117314338684, 0.02009253203868866, -0.018277626484632492, 23.90998649597168, -4.5625, 0.0, 91, 0, 0, 0, 0, -1024, 3.0, 4.800000190734863, 3.5, 1.600000023841858, 3.5, 1.0, 0.0, 1, 0, 0, 0, 97, 100, -299, -114, -928, -121, -28066, -3072, -3072, -398, 0, 0, -1024, 0, 0, 0, 0, 0, 0, 0, 0, 0, -1024, 0, 1, 25, 0, 73, 0, 0.0, 0.0, 0.0, 5.0, 2.0, 0.0, 0.0, 1.5, 0.0, 0.0, 1.0, 0.0, 0.0, 1.0, 0.0, 0.009999999776482582, 1.0, 0, 3, 0, 0, -100
49.91181333314065, -98.26869833335125, 48460, 165151.09375, 9.28155517578125, -1.0664691925048828, -8.951396942138672, 0.07212117314338684, 0.02009253203868866, -0.018277626484632492, 23.90998649597168, -4.5625, 0.0, 91, 0, 0, 0, 0, -1024, 3.0, 4.800000190734863, 3.5, 1.600000023841858, 3.5, 1.0, 0.0, 1, 0, 0, 0, -119, 100, -299, -111, -925, -121, -28066, -3072, -3072, -395, 0, 0, -1024, 0, 0, 0, 0, 0, 0, 0, 0, 0, -1024, 0, 1, 25, 0, 73, 0, 0.0, 0.0, 0.0, 5.0, 2.0, 0.0, 0.0, 1.5, 0.0, 0.0, 1.0, 0.0, 0.0, 1.0, 0.0, 0.009999999776482582, 1.0, 0, 3, 0, 0, -100
49.91181333314065, -98.26869833335125, 48460, 165151.09375, 9.28155517578125, -1.0664691925048828, -8.951396942138672, 0.07212117314338684, 0.02009253203868866, -0.018277626484632492, 23.90998649597168, -4.5625, 0.0, 91, 0, 0, 0, 0, -1024, 3.0, 4.800000190734863, 3.5, 1.600000023841858, 3.5, 1.0, 0.0, 1, 0, 0, 0, -119, 100, -299, -111, -925, -121, -28066, -3072, -3072, -395, 0, 0, -1024, 0, 0, 0, 0, 0, 0, 0, 0, 0, -1024, 0, 1, 25, 0, 73, 0, 0.0, 0.0, 0.0, 5.0, 2.0, 0.0, 0.0, 1.5, 0.0, 0.0, 1.0, 0.0, 0.0, 1.0, 0.0, 0.009999999776482582, 1.0, 0, 3, 0, 0, -100
49.91181333314065, -98.26869833335125, 49818, 165152.5, 9.469319343566895, -1.078362226486206, -9.752690315246582, 0.018990011885762215, 0.016976892948150635, -0.011404288932681084, 24.270008087158203, -3.875, 0.0, 91, 0, 0, 0, 0, -1024, 3.0, 4.800000190734863, 3.5, 1.600000023841858, 3.5, 1.0, 0.0, 1, 0, 0, 0, -119, 100, -299, -111, -925, -121, -28066, -3072, -3072, -395, 0, 0, -1024, 0, 0, 0, 0, 0, 0, 0, 0, 0, -1024, 0, 1, 25, 0, 73, 0, 0.0, 0.0, 0.0, 5.0, 2.0, 0.0, 0.0, 1.5, 0.0, 0.0, 1.0, 0.0, 0.0, 1.0, 0.0, 0.009999999776482582, 1.0, 0, 3, 0, 0, -100
49.91181333314065, -98.26869833335125, 49818, 165152.5, 9.469319343566895, -1.078362226486206, -9.752690315246582, 0.018990011885762215, 0.016976892948150635, -0.011404288932681084, 24.270008087158203, -3.875, 0.0, 91, 0, 0, 0, 0, -1024, 3.0, 4.800000190734863, 3.5, 1.600000023841858, 3.5, 1.0, 0.0, 13000, 1, 0, 0, 109, 100, -303, -114, -928, -121, -28066, -3072, -3072, -395, 0, 0, -1024, 0, 0, 0, 0, 0, 0, 0, 0, 0, -1024, 0, 1, 25, 0, 73, 0, 0.0, 0.0, 0.0, 5.0, 2.0, 0.0, 0.0, 1.5, 0.0, 0.0, 1.0, 0.0, 0.0, 1.0, 0.0, 0.009999999776482582, 1.0, 0, 3, 0, 0, -100
49.91181333314065, -98.26869833335125, 49818, 165152.5, 9.469319343566895, -1.078362226486206, -9.752690315246582, 0.018990011885762215, 0.016976892948150635, -0.011404288932681084, 24.270008087158203, -3.875, 0.0, 91, 0, 0, 0, 0, -1024, 3.0, 4.800000190734863, 3.5, 1.600000023841858, 3.5, 1.0, 0.0, 13000, 1, 0, 0, 109, 100, -303, -114, -928, -121, -28066, -3072, -3072, -395, 0, 0, -1024, 0, 0, 0, 0, 0, 0, 0, 0, 0, -1024, 0, 1, 25, 0, 73, 0, 0.0, 0.0, 0.0, 5.0, 2.0, 0.0, 0.0, 1.5, 0.0, 0.0, 1.0, 0.0, 0.0, 1.0, 0.0, 0.009999999776482582, 1.0, 0, 3, 0, 0, -100
49.91181333314065, -98.26869833335125, 51177, 165153.90625, 9.45425796508789, -0.976121723651886, -10.758207321166992, -0.014369668439030647, 0.021690983325242996, -0.030104629695415497, 23.384986877441406, -4.0, 0.0, 91, 0, 0, 0, 0, -1024, 3.0, 4.800000190734863, 3.5, 1.600000023841858, 3.5, 1.0, 0.0, 13000, 1, 0, 0, 109, 100, -303, -114, -928, -121, -28066, -3072, -3072, -395, 0, 0, -1024, 0, 0, 0, 0, 0, 0, 0, 0, 0, -1024, 0, 1, 25, 0, 73, 0, 0.0, 0.0, 0.0, 5.0, 2.0, 0.0, 0.0, 1.5, 0.0, 0.0, 1.0, 0.0, 0.0, 1.0, 0.0, 0.009999999776482582, 1.0, 0, 3, 0, 0, -100
49.91181333314065, -98.26869833335125, 51177, 165153.90625, 9.45425796508789, -0.976121723651886, -10.758207321166992, -0.014369668439030647, 0.021690983325242996, -0.030104629695415497, 23.384986877441406, -4.0, 0.0, 91, 0, 0, 0, 0, -1024, 3.0, 4.800000190734863, 3.5, 1.600000023841858, 3.5, 1.0, 0.0, 4300, 13000, 1, 0, 98, 100, -299, -111, -925, -121, -28070, -3072, -3072, -395, 0, 0, -1024, 0, 0, 0, 0, 0, 0, 0, 0, 0, -1024, 0, 1, 25, 0, 73, 0, 0.0, 0.0, 0.0, 5.0, 2.0, 0.0, 0.0, 1.5, 0.0, 0.0, 1.0, 0.0, 0.0, 1.0, 0.0, 0.009999999776482582, 1.0, 0, 3, 0, 0, -100
49.91181333314065, -98.26869833335125, 51177, 165153.90625, 9.45425796508789, -0.976121723651886, -10.758207321166992, -0.014369668439030647, 0.021690983325242996, -0.030104629695415497, 23.384986877441406, -4.0, 0.0, 91, 0, 0, 0, 0, -1024, 3.0, 4.800000190734863, 3.5, 1.600000023841858, 3.5, 1.0, 0.0, 4300, 13000, 1, 0, 98, 100, -299, -111, -925, -121, -28070, -3072, -3072, -395, 0, 0, -1024, 0, 0, 0, 0, 0, 0, 0, 0, 0, -1024, 0, 1, 25, 0, 73, 0, 0.0, 0.0, 0.0, 5.0, 2.0, 0.0, 0.0, 1.5, 0.0, 0.0, 1.0, 0.0, 0.0, 1.0, 0.0, 0.009999999776482582, 1.0, 0, 3, 0, 0, 50
49.91181333314065, -98.26869833335125, 52535, 165155.40625, 9.436705589294434, -0.9884414672851562, -11.119433403015137, 0.011048254556953907, 0.018060920760035515, -0.007745656184852123, 23.94001579284668, -4.75, 0.0, 91, 0, 0, 0, 0, -1024, 3.0, 4.800000190734863, 3.5, 1.600000023841858, 3.5, 1.0, 0.0, 4300, 13000, 1, 0, 98, 100, -299, -111, -925, -121, -28070, -3072, -3072, -395, 0, 0, -1024, 0, 0, 0, 0, 0, 0, 0, 0, 0, -1024, 0, 1, 25, 0, 73, 0, 0.0, 0.0, 0.0, 5.0, 2.0, 0.0, 0.0, 1.5, 0.0, 0.0, 1.0, 0.0, 0.0, 1.0, 0.0, 0.009999999776482582, 1.0, 0, 3, 0, 0, 50
49.91181333314065, -98.26869833335125, 52535, 165155.40625, 9.436705589294434, -0.9884414672851562, -11.119433403015137, 0.011048254556953907, 0.018060920760035515, -0.007745656184852123, 23.94001579284668, -4.75, 0.0, 91, 0, 0, 0, 0, -1024, 3.0, 4.800000190734863, 3.5, 1.600000023841858, 3.5, 1.0, 0.0, 4300, 13000, 1, 0, 98, 100, -299, -111, -28031, -121, -28066, -3072, -3072, -395, 0, 0, -1024, 0, 0, 0, 0, 0, 0, 0, 0, 0, -1024, 0, 1, 25, 0, 73, 0, 0.0, 0.0, 0.0, 5.0, 2.0, 0.0, 0.0, 1.5, 0.0, 0.0, 1.0, 0.0, 0.0, 1.0, 0.0, 0.009999999776482582, 1.0, 0, 3, 0, 0, 50
49.91181333314065, -98.26869833335125, 52535, 165155.40625, 9.436705589294434, -0.9884414672851562, -11.119433403015137, 0.011048254556953907, 0.018060920760035515, -0.007745656184852123, 23.94001579284668, -4.75, 0.0, 91, 0, 0, 0, 0, -1024, 3.0, 4.800000190734863, 3.5, 1.600000023841858, 3.5, 1.0, 0.0, 4300, 13000, 1, 0, 98, 100, -299, -111, -28031, -121, -28066, -3072, -3072, -395, 0, 0, -1024, 0, 0, 0, 0, 0, 0, 0, 0, 0, -1024, 0, 1, 25, 0, 73, 0, 0.0, 0.0, 0.0, 5.0, 2.0, 0.0, 0.0, 1.5, 0.0, 0.0, 1.0, 0.0, 0.0, 1.0, 0.0, 0.009999999776482582, 1.0, 0, 3, 0, 0, 50
49.91181333314065, -98.26869833335125, 53894, 165156.796875, 9.395120620727539, -1.1058900356292725, -11.094676971435547, -0.009454825893044472, 0.044489674270153046, 0.008349031209945679, 24.28498649597168, -4.125, 0.0, 91, 0, 0, 0, 0, -1024, 3.0, 4.800000190734863, 3.5, 1.600000023841858, 3.5, 1.0, 0.0, 4300, 13000, 1, 0, 98, 100, -299, -111, -28031, -121, -28066, -3072, -3072, -395, 0, 0, -1024, 0, 0, 0, 0, 0, 0, 0, 0, 0, -1024, 0, 1, 25, 0, 73, 0, 0.0, 0.0, 0.0, 5.0, 2.0, 0.0, 0.0, 1.5, 0.0, 0.0, 1.0, 0.0, 0.0, 1.0, 0.0, 0.009999999776482582, 1.0, 0, 3, 0, 0, 50
49.91181333314065, -98.26869833335125, 53894, 165156.796875, 9.395120620727539, -1.1058900356292725, -11.094676971435547, -0.009454825893044472, 0.044489674270153046, 0.008349031209945679, 24.28498649597168, -4.125, 0.0, 91, 0, 0, 0, 0, -1024, 3.0, 4.800000190734863, 3.5, 1.600000023841858, 3.5, 1.0, 0.0, 4301, 13000, 1, 0, 99, 100, -2826, -111, -925, -124, -28070, -3072, -3072, -395, 0, 0, -1024, 0, 0, 0, 0, 0, 0, 0, 0, 0, -1024, 0, 1, 25, 0, 73, 0, 0.0, 0.0, 0.0, 5.0, 2.0, 0.0, 0.0, 1.5, 0.0, 0.0, 1.0, 0.0, 0.0, 1.0, 0.0, 0.009999999776482582, 1.0, 0, 3, 0, 0, 50
49.91181333314065, -98.26869833335125, 53894, 165156.796875, 9.395120620727539, -1.1058900356292725, -11.094676971435547, -0.009454825893044472, 0.044489674270153046, 0.008349031209945679, 24.28498649597168, -4.125, 0.0, 91, 0, 0, 0, 0, -1024, 3.0, 4.800000190734863, 3.5, 1.600000023841858, 3.5, 1.0, 0.0, 4301, 13000, 1, 0, 99, 100, -2826, -111, -925, -124, -28070, -3072, -3072, -395, 0, 0, -1024, 0, 0, 0, 0, 0, 0, 0, 0, 0, -1024, 0, 1, 25, 0, 73, 0, 0.0, 0.0, 0.0, 5.0, 2.0, 0.0, 0.0, 1.5, 0.0, 0.0, 1.0, 0.0, 0.0, 1.0, 0.0, 0.009999999776482582, 1.0, 0, 3, 0, 0, 50
49.91181333314065, -98.26869833335125, 55253, 165158.203125, 9.340721130371094, -1.064939022064209, -11.283408164978027, -0.009265584871172905, 0.011324619874358177, -0.001913510262966156, 24.329994201660156, -4.0, 0.0, 91, 0, 0, 0, 0, -1024, 3.0, 4.800000190734863, 3.5, 1.600000023841858, 3.5, 1.0, 0.0, 4301, 13000, 1, 0, 99, 100, -2826, -111, -925, -124, -28070, -3072, -3072, -395, 0, 0, -1024, 0, 0, 0, 0, 0, 0, 0, 0, 0, -1024, 0, 1, 25, 0, 73, 0, 0.0, 0.0, 0.0, 5.0, 2.0, 0.0, 0.0, 1.5, 0.0, 0.0, 1.0, 0.0, 0.0, 1.0, 0.0, 0.009999999776482582, 1.0, 0, 3, 0, 0, 50
49.91181333314065, -98.26869833335125, 55253, 165158.203125, 9.340721130371094, -1.064939022064209, -11.283408164978027, -0.009265584871172905, 0.011324619874358177, -0.001913510262966156, 24.329994201660156, -4.0, 0.0, 91, 0, 0, 0, 0, -1024, 3.0, 4.800000190734863, 3.5, 1.600000023841858, 3.5, 1.0, 0.0, 4301, 13000, 1, 0, 100, 100, -303, -111, -925, -2647, -28070, -3072, -3072, -398, 0, 0, -1024, 0, 0, 0, 0, 0, 0, 0, 0, 0, -1024, 0, 1, 25, 0, 73, 0, 0.0, 0.0, 0.0, 5.0, 2.0, 0.0, 0.0, 1.5, 0.0, 0.0, 1.0, 0.0, 0.0, 1.0, 0.0, 0.009999999776482582, 1.0, 0, 3, 0, 0, 50
49.91181333314065, -98.26869833335125, 55253, 165158.203125, 9.340721130371094, -1.064939022064209, -11.283408164978027, -0.009265584871172905, 0.011324619874358177, -0.001913510262966156, 24.329994201660156, -4.0, 0.0, 91, 0, 0, 0, 0, -1024, 3.0, 4.800000190734863, 3.5, 1.600000023841858, 3.5, 1.0, 0.0, 4301, 13000, 1, 0, 100, 100, -303, -111, -925, -2647, -28070, -3072, -3072, -398, 0, 0, -1024, 0, 0, 0, 0, 0, 0, 0, 0, 0, -1024, 0, 1, 25, 0, 73, 0, 0.0, 0.0, 0.0, 5.0, 2.0, 0.0, 0.0, 1.5, 0.0, 0.0, 1.0, 0.0, 0.0, 1.0, 0.0, 0.009999999776482582, 1.0, 0, 3, 0, 0, 50
49.91181333314065, -98.26869833335125, 56611, 165159.59375, 0.9378072023391724, -0.31871697306632996, -10.309808731079102, 0.029400421306490898, -0.02206404134631157, -0.006606742739677429, 24.209985733032227, -4.25, 0.0, 91, 0, 0, 0, 0, -1024, 3.0, 4.800000190734863, 3.5, 1.600000023841858, 3.5, 1.0, 0.0, 4301, 13000, 1, 0, 100, 100, -303, -111, -925, -2647, -28070, -3072, -3072, -398, 0, 0, -1024, 0, 0, 0, 0, 0, 0, 0, 0, 0, -1024, 0, 1, 25, 0, 73, 0, 0.0, 0.0, 0.0, 5.0, 2.0, 0.0, 0.0, 1.5, 0.0, 0.0, 1.0, 0.0, 0.0, 1.0, 0.0, 0.009999999776482582, 1.0, 0, 3, 0, 0, 49
49.91181333314065, -98.26869833335125, 56611, 165159.59375, 0.9378072023391724, -0.31871697306632996, -10.309808731079102, 0.029400421306490898, -0.02206404134631157, -0.006606742739677429, 24.209985733032227, -4.25, 0.0, 91, 0, 0, 0, 0, -1024, 3.0, 4.800000190734863, 3.5, 1.600000023841858, 3.5, 1.0, 0.0, 4302, 13000, 1, 0, 102, 100, -299, -114, -925, -121, -28073, -3072, -3072, -398, 0, 0, -1024, 0, 0, 0, 0, 0, 0, 0, 0, 0, -1024, 0, 1, 25, 0, 73, 0, 0.0, 0.0, 0.0, 5.0, 2.0, 0.0, 0.0, 1.5, 0.0, 0.0, 1.0, 0.0, 0.0, 1.0, 0.0, 0.009999999776482582, 1.0, 0, 3, 0, 0, 49
49.91181333314065, -98.26869833335125, 56611, 165159.59375, 0.9378072023391724, -0.31871697306632996, -10.309808731079102, 0.029400421306490898, -0.02206404134631157, -0.006606742739677429, 24.209985733032227, -4.25, 0.0, 91, 0, 0, 0, 0, -1024, 3.0, 4.800000190734863, 3.5, 1.600000023841858, 3.5, 1.0, 0.0, 4302, 13000, 1, 0, 102, 100, -299, -114, -925, -121, -28073, -3072, -3072, -398, 0, 0, -1024, 0, 0, 0, 0, 0, 0, 0, 0, 0, -1024, 0, 1, 25, 0, 73, 0, 0.0, 0.0, 0.0, 5.0, 2.0, 0.0, 0.0, 1.5, 0.0, 0.0, 1.0, 0.0, 0.0, 1.0, 0.0, 0.009999999776482582, 1.0, 0, 3, 0, 0, 49
49.91181333314065, -98.26869833335125, 57970, 165201.0, 0.26391321420669556, 1.2235751152038574, -9.60628604888916, -0.032604947686195374, 0.2213580459356308, 0.180556058883667, 23.684986114501953, -5.5, 0.0, 91, 0, 0, 0, 0, -1024, 3.0, 4.800000190734863, 3.5, 1.600000023841858, 3.5, 1.0, 0.0, 4302, 13000, 1, 0, 102, 100, -299, -114, -925, -121, -28073, -3072, -3072, -398, 0, 0, -1024, 0, 0, 0, 0, 0, 0, 0, 0, 0, -1024, 0, 1, 25, 0, 73, 0, 0.0, 0.0, 0.0, 5.0, 2.0, 0.0, 0.0, 1.5, 0.0, 0.0, 1.0, 0.0, 0.0, 1.0, 0.0, 0.009999999776482582, 1.0, 0, 3, 0, 0, 49
49.91181333314065, -98.26869833335125, 57970, 165201.0, 0.26391321420669556, 1.2235751152038574, -9.60628604888916, -0.032604947686195374, 0.2213580459356308, 0.180556058883667, 23.684986114501953, -5.5, 0.0, 91, 0, 0, 0, 0, -1024, 3.0, 4.800000190734863, 3.5, 1.600000023841858, 3.5, 1.0, 0.0, 4302, 13000, 1, 0, -123, 100, -299, -111, -925, -121, -30596, -3072, -3072, -395, 0, 0, -1024, 0, 0, 0, 0, 0, 0, 0, 0, 0, -1024, 0, 1, 25, 0, 73, 0, 0.0, 0.0, 0.0, 5.0, 2.0, 0.0, 0.0, 1.5, 0.0, 0.0, 1.0, 0.0, 0.0, 1.0, 0.0, 0.009999999776482582, 1.0, 0, 3, 0, 0, 49
49.91181333314065, -98.26869833335125, 57970, 165201.0, 0.26391321420669556, 1.2235751152038574, -9.60628604888916, -0.032604947686195374, 0.2213580459356308, 0.180556058883667, 23.684986114501953, -5.5, 0.0, 91, 0, 0, 0, 0, -1024, 3.0, 4.800000190734863, 3.5, 1.600000023841858, 3.5, 1.0, 0.0, 4302, 13000, 1, 0, -123, 100, -299, -111, -925, -121, -30596, -3072, -3072, -395, 0, 0, -1024, 0, 0, 0, 0, 0, 0, 0, 0, 0, -1024, 0, 1, 25, 0, 73, 0, 0.0, 0.0, 0.0, 5.0, 2.0, 0.0, 0.0, 1.5, 0.0, 0.0, 1.0, 0.0, 0.0, 1.0, 0.0, 0.009999999776482582, 1.0, 0, 3, 0, 0, 49
49.91181333314065, -98.26869833335125, 59329, 165202.40625, 0.7175444960594177, -0.4378267526626587, -10.669458389282227, -0.0032070204615592957, 0.0137429628521204, 0.018526028841733932, 24.795007705688477, -6.375, 0.0, 91, 0, 0, 0, 0, -1024, 3.0, 4.800000190734863, 3.5, 1.600000023841858, 3.5, 1.0, 0.0, 4302, 13000, 1, 0, -123, 100, -299, -111, -925, -121, -30596, -3072, -3072, -395, 0, 0, -1024, 0, 0, 0, 0, 0, 0, 0, 0, 0, -1024, 0, 1, 25, 0, 73, 0, 0.0, 0.0, 0.0, 5.0, 2.0, 0.0, 0.0, 1.5, 0.0, 0.0, 1.0, 0.0, 0.0, 1.0, 0.0, 0.009999999776482582, 1.0, 0, 3, 0, 0, 49
49.91181333314065, -98.26869833335125, 59329, 165202.40625, 0.7175444960594177, -0.4378267526626587, -10.669458389282227, -0.0032070204615592957, 0.0137429628521204, 0.018526028841733932, 24.795007705688477, -6.375, 0.0, 91, 0, 0, 0, 0, -1024, 3.0, 4.800000190734863, 3.5, 1.600000023841858, 3.5, 1.0, 0.0, 4303, 13000, 1, 0, 98, 100, -303, -114, -928, -121, -28070, -3072, -3072, -2922, 0, 0, -1024, 0, 0, 0, 0, 0, 0, 0, 0, 0, -1024, 0, 1, 25, 0, 73, 0, 0.0, 0.0, 0.0, 5.0, 2.0, 0.0, 0.0, 1.5, 0.0, 0.0, 1.0, 0.0, 0.0, 1.0, 0.0, 0.009999999776482582, 1.0, 0, 3, 0, 0, 49
49.91181333314065, -98.26869833335125, 59329, 165202.40625, 0.7175444960594177, -0.4378267526626587, -10.669458389282227, -0.0032070204615592957, 0.0137429628521204, 0.018526028841733932, 24.795007705688477, -6.375, 0.0, 91, 0, 0, 0, 0, -1024, 3.0, 4.800000190734863, 3.5, 1.600000023841858, 3.5, 1.0, 0.0, 4303, 13000, 1, 0, 98, 100, -303, -114, -928, -121, -28070, -3072, -3072, -2922, 0, 0, -1024, 0, 0, 0, 0, 0, 0, 0, 0, 0, -1024, 0, 1, 25, 0, 73, 0, 0.0, 0.0, 0.0, 5.0, 2.0, 0.0, 0.0, 1.5, 0.0, 0.0, 1.0, 0.0, 0.0, 1.0, 0.0, 0.009999999776482582, 1.0, 0, 3, 0, 0, 49
49.91181333314065, -98.26869833335125, 60687, 165203.796875, -1.8930801153182983, -1.311023473739624, -3.110621452331543, -0.16857518255710602, 0.055677108466625214, 0.1532970517873764, 24.225000381469727, -6.5625, 0.0, 91, 0, 0, 0, 0, -1024, 3.0, 4.800000190734863, 3.5, 1.600000023841858, 3.5, 1.0, 0.0, 4303, 13000, 1, 0, 98, 100, -303, -114, -928, -121, -28070, -3072, -3072, -2922, 0, 0, -1024, 0, 0, 0, 0, 0, 0, 0, 0, 0, -1024, 0, 1, 25, 0, 73, 0, 0.0, 0.0, 0.0, 5.0, 2.0, 0.0, 0.0, 1.5, 0.0, 0.0, 1.0, 0.0, 0.0, 1.0, 0.0, 0.009999999776482582, 1.0, 0, 3, 0, 0, 49
49.91181333314065, -98.26869833335125, 60687, 165203.796875, -1.8930801153182983, -1.311023473739624, -3.110621452331543, -0.16857518255710602, 0.055677108466625214, 0.1532970517873764, 24.225000381469727, -6.5625, 0.0, 91, 0, 0, 0, 0, -1024, 3.0, 4.800000190734863, 3.5, 1.600000023841858, 3.5, 1.0, 0.0, 4304, 13000, 1, 0, 106, 100, -303, -111, -925, -121, -28070, -3072, -3072, -395, 0, 0, -1024, 0, 0, 0, 0, 0, 0, 0, 0, 0, -1024, 0, 1, 25, 0, 73, 0, 0.0, 0.0, 0.0, 5.0, 2.0, 0.0, 0.0, 1.5, 0.0, 0.0, 1.0, 0.0, 0.0, 1.0, 0.0, 0.009999999776482582, 1.0, 0, 3, 0, 0, 53
49.91181333314065, -98.26869833335125, 60687, 165203.796875, -1.8930801153182983, -1.311023473739624, -3.110621452331543, -0.16857518255710602, 0.055677108466625214, 0.1532970517873764, 24.225000381469727, -6.5625, 0.0, 91, 0, 0, 0, 0, -1024, 3.0, 4.800000190734863, 3.5, 1.600000023841858, 3.5, 1.0, 0.0, 4304, 13000, 1, 0, 106, 100, -303, -111, -925, -121, -28070, -3072, -3072, -395, 0, 0, -1024, 0, 0, 0, 0, 0, 0, 0, 0, 0, -1024, 0, 1, 25, 0, 73, 0, 0.0, 0.0, 0.0, 5.0, 2.0, 0.0, 0.0, 1.5, 0.0, 0.0, 1.0, 0.0, 0.0, 1.0, 0.0, 0.009999999776482582, 1.0, 0, 3, 0, 0, 53
49.91181333314065, -98.26869833335125, 62046, 165205.203125, -0.3717232644557953, 1.3171162605285645, -6.139556407928467, 0.023557772859930992, 0.04095117002725601, -0.10238397866487503, 24.629993438720703, -7.75, 0.0, 91, 0, 0, 0, 0, -1024, 3.0, 4.800000190734863, 3.5, 1.600000023841858, 3.5, 1.0, 0.0, 4304, 13000, 1, 0, 106, 100, -303, -111, -925, -121, -28070, -3072, -3072, -395, 0, 0, -1024, 0, 0, 0, 0, 0, 0, 0, 0, 0, -1024, 0, 1, 25, 0, 73, 0, 0.0, 0.0, 0.0, 5.0, 2.0, 0.0, 0.0, 1.5, 0.0, 0.0, 1.0, 0.0, 0.0, 1.0, 0.0, 0.009999999776482582, 1.0, 0, 3, 0, 0, 53
49.91181333314065, -98.26869833335125, 62046, 165205.203125, -0.3717232644557953, 1.3171162605285645, -6.139556407928467, 0.023557772859930992, 0.04095117002725601, -0.10238397866487503, 24.629993438720703, -7.75, 0.0, 91, 0, 0, 0, 0, -1024, 3.0, 4.800000190734863, 3.5, 1.600000023841858, 3.5, 1.0, 0.0, 4304, 13000, 1, 0, -120, 100, -306, -111, -925, -121, -28066, -3072, -3072, -395, 0, 0, -1024, 0, 0, 0, 0, 0, 0, 0, 0, 0, -1024, 0, 1, 25, 0, 73, 0, 0.0, 0.0, 0.0, 5.0, 2.0, 0.0, 0.0, 1.5, 0.0, 0.0, 1.0, 0.0, 0.0, 1.0, 0.0, 0.009999999776482582, 1.0, 0, 3, 0, 0, 53
49.91181333314065, -98.26869833335125, 62046, 165205.203125, -0.3717232644557953, 1.3171162605285645, -6.139556407928467, 0.023557772859930992, 0.04095117002725601, -0.10238397866487503, 24.629993438720703, -7.75, 0.0, 91, 0, 0, 0, 0, -1024, 3.0, 4.800000190734863, 3.5, 1.600000023841858, 3.5, 1.0, 0.0, 4304, 13000, 1, 0, -120, 100, -306, -111, -925, -121, -28066, -3072, -3072, -395, 0, 0, -1024, 0, 0, 0, 0, 0, 0, 0, 0, 0, -1024, 0, 1, 25, 0, 73, 0, 0.0, 0.0, 0.0, 5.0, 2.0, 0.0, 0.0, 1.5, 0.0, 0.0, 1.0, 0.0, 0.0, 1.0, 0.0, 0.009999999776482582, 1.0, 0, 3, 0, 0, 53
49.91181333314065, -98.26869833335125, 63405, 165206.59375, 0.4925588071346283, -0.30758386850357056, -6.283553600311279, -0.0009619792690500617, 0.01465351041406393, 0.006029040552675724, 24.645008087158203, -6.625, 0.0, 91, 0, 0, 0, 0, -1024, 3.0, 4.800000190734863, 3.5, 1.600000023841858, 3.5, 1.0, 0.0, 4304, 13000, 1, 0, -120, 100, -306, -111, -925, -121, -28066, -3072, -3072, -395, 0, 0, -1024, 0, 0, 0, 0, 0, 0, 0, 0, 0, -1024, 0, 1, 25, 0, 73, 0, 0.0, 0.0, 0.0, 5.0, 2.0, 0.0, 0.0, 1.5, 0.0, 0.0, 1.0, 0.0, 0.0, 1.0, 0.0, 0.009999999776482582, 1.0, 0, 3, 0, 0, 53
49.91181333314065, -98.26869833335125, 63405, 165206.59375, 0.4925588071346283, -0.30758386850357056, -6.283553600311279, -0.0009619792690500617, 0.01465351041406393, 0.006029040552675724, 24.645008087158203, -6.625, 0.0, 91, 0, 0, 0, 0, -1024, 3.0, 4.800000190734863, 3.5, 1.600000023841858, 3.5, 1.0, 0.0, 4305, 13000, 1, 0, -122, 100, -303, -111, -925, -121, -28066, -3072, -3072, -395, 0, 0, -1024, 0, 0, 0, 0, 0, 0, 0, 0, 0, -1024, 0, 1, 25, 0, 73, 0, 0.0, 0.0, 0.0, 5.0, 2.0, 0.0, 0.0, 1.5, 0.0, 0.0, 1.0, 0.0, 0.0, 1.0, 0.0, 0.009999999776482582, 1.0, 0, 3, 0, 0, 53
49.91181333314065, -98.26869833335125, 63405, 165206.59375, 0.4925588071346283, -0.30758386850357056, -6.283553600311279, -0.0009619792690500617, 0.01465351041406393, 0.006029040552675724, 24.645008087158203, -6.625, 0.0, 91, 0, 0, 0, 0, -1024, 3.0, 4.800000190734863, 3.5, 1.600000023841858, 3.5, 1.0, 0.0, 4305, 13000, 1, 0, -122, 100, -303, -111, -925, -121, -28066, -3072, -3072, -395, 0, 0, -1024, 0, 0, 0, 0, 0, 0, 0, 0, 0, -1024, 0, 1, 25, 0, 73, 0, 0.0, 0.0, 0.0, 5.0, 2.0, 0.0, 0.0, 1.5, 0.0, 0.0, 1.0, 0.0, 0.0, 1.0, 0.0, 0.009999999776482582, 1.0, 0, 3, 0, 0, 53
49.91181333314065, -98.26869833335125, 64763, 165208.0, -4.577724456787109, 9.330147743225098, -0.7305687665939331, 0.27191516757011414, -0.33889660239219666, 0.028376571834087372, 23.579994201660156, -4.25, 0.0, 91, 0, 0, 0, 0, -1024, 3.0, 4.800000190734863, 3.5, 1.600000023841858, 3.5, 1.0, 0.0, 4305, 13000, 1, 0, -122, 100, -303, -111, -925, -121, -28066, -3072, -3072, -395, 0, 0, -1024, 0, 0, 0, 0, 0, 0, 0, 0, 0, -1024, 0, 1, 25, 0, 73, 0, 0.0, 0.0, 0.0, 5.0, 2.0, 0.0, 0.0, 1.5, 0.0, 0.0, 1.0, 0.0, 0.0, 1.0, 0.0, 0.009999999776482582, 1.0, 0, 3, 0, 0, 53
49.91181333314065, -98.26869833335125, 64763, 165208.0, -4.577724456787109, 9.330147743225098, -0.7305687665939331, 0.27191516757011414, -0.33889660239219666, 0.028376571834087372, 23.579994201660156, -4.25, 0.0, 91, 0, 0, 0, 0, -1024, 3.0, 4.800000190734863, 3.5, 1.600000023841858, 3.5, 1.0, 0.0, 13000, 4305, 13000, 1, -118, 100, -299, -114, -925, -121, -28066, -3072, -3072, -395, 0, 0, -1024, 0, 0, 0, 0, 0, 0, 0, 0, 0, -1024, 0, 1, 25, 0, 73, 0, 0.0, 0.0, 0.0, 5.0, 2.0, 0.0, 0.0, 1.5, 0.0, 0.0, 1.0, 0.0, 0.0, 1.0, 0.0, 0.009999999776482582, 1.0, 0, 3, 0, 0, 50
49.91181333314065, -98.26869833335125, 64763, 165208.0, -4.577724456787109, 9.330147743225098, -0.7305687665939331, 0.27191516757011414, -0.33889660239219666, 0.028376571834087372, 23.579994201660156, -4.25, 0.0, 91, 0, 0, 0, 0, -1024, 3.0, 4.800000190734863, 3.5, 1.600000023841858, 3.5, 1.0, 0.0, 13000, 4305, 13000, 1, -118, 100, -299, -114, -925, -121, -28066, -3072, -3072, -395, 0, 0, -1024, 0, 0, 0, 0, 0, 0, 0, 0, 0, -1024, 0, 1, 25, 0, 73, 0, 0.0, 0.0, 0.0, 5.0, 2.0, 0.0, 0.0, 1.5, 0.0, 0.0, 1.0, 0.0, 0.0, 1.0, 0.0, 0.009999999776482582, 1.0, 0, 3, 0, 0, 50
49.91181333314065, -98.26869833335125, 66122, 165209.40625, 1.267332673072815, 6.083999156951904, 3.0869829654693604, -0.02397148311138153, 0.12352589517831802, 0.019245639443397522, 24.10499382019043, -5.3125, 0.0, 91, 0, 0, 0, 0, -1024, 3.0, 4.800000190734863, 3.5, 1.600000023841858, 3.5, 1.0, 0.0, 13000, 4305, 13000, 1, -118, 100, -299, -114, -925, -121, -28066, -3072, -3072, -395, 0, 0, -1024, 0, 0, 0, 0, 0, 0, 0, 0, 0, -1024, 0, 1, 25, 0, 73, 0, 0.0, 0.0, 0.0, 5.0, 2.0, 0.0, 0.0, 1.5, 0.0, 0.0, 1.0, 0.0, 0.0, 1.0, 0.0, 0.009999999776482582, 1.0, 0, 3, 0, 0, 50
49.91181333314065, -98.26869833335125, 66122, 165209.40625, 1.267332673072815, 6.083999156951904, 3.0869829654693604, -0.02397148311138153, 0.12352589517831802, 0.019245639443397522, 24.10499382019043, -5.3125, 0.0, 91, 0, 0, 0, 0, -1024, 3.0, 4.800000190734863, 3.5, 1.600000023841858, 3.5, 1.0, 0.0, 4300, 13000, 4305, 13000, -119, 100, -303, -111, -925, -124, -28073, -3072, -3072, -395, 0, 0, -1024, 0, 0, 0, 0, 0, 0, 0, 0, 0, -1024, 0, 1, 25, 0, 73, 0, 0.0, 0.0, 0.0, 5.0, 2.0, 0.0, 0.0, 1.5, 0.0, 0.0, 1.0, 0.0, 0.0, 1.0, 0.0, 0.009999999776482582, 1.0, 0, 3, 0, 0, 50
49.91181333314065, -98.26869833335125, 66122, 165209.40625, 1.267332673072815, 6.083999156951904, 3.0869829654693604, -0.02397148311138153, 0.12352589517831802, 0.019245639443397522, 24.10499382019043, -5.3125, 0.0, 91, 0, 0, 0, 0, -1024, 3.0, 4.800000190734863, 3.5, 1.600000023841858, 3.5, 1.0, 0.0, 4300, 13000, 4305, 13000, -119, 100, -303, -111, -925, -124, -28073, -3072, -3072, -395, 0, 0, -1024, 0, 0, 0, 0, 0, 0, 0, 0, 0, -1024, 0, 1, 25, 0, 73, 0, 0.0, 0.0, 0.0, 5.0, 2.0, 0.0, 0.0, 1.5, 0.0, 0.0, 1.0, 0.0, 0.0, 1.0, 0.0, 0.009999999776482582, 1.0, 0, 3, 0, 0, 50
49.91181333314065, -98.26869833335125, 67480, 165210.90625, 1.7705177068710327, 8.77064323425293, 2.5004377365112305, 0.083033986389637, 0.1324366182088852, 0.09462952613830566, 24.420007705688477, -5.5, 0.0, 91, 0, 0, 0, 0, -1024, 3.0, 4.800000190734863, 3.5, 1.600000023841858, 3.5, 1.0, 0.0, 4300, 13000, 4305, 13000, -119, 100, -303, -111, -925, -124, -28073, -3072, -3072, -395, 0, 0, -1024, 0, 0, 0, 0, 0, 0, 0, 0, 0, -1024, 0, 1, 25, 0, 73, 0, 0.0, 0.0, 0.0, 5.0, 2.0, 0.0, 0.0, 1.5, 0.0, 0.0, 1.0, 0.0, 0.0, 1.0, 0.0, 0.009999999776482582, 1.0, 0, 3, 0, 0, 50
49.91181333314065, -98.26869833335125, 67480, 165210.90625, 1.7705177068710327, 8.77064323425293, 2.5004377365112305, 0.083033986389637, 0.1324366182088852, 0.09462952613830566, 24.420007705688477, -5.5, 0.0, 91, 0, 0, 0, 0, -1024, 3.0, 4.800000190734863, 3.5, 1.600000023841858, 3.5, 1.0, 0.0, 4300, 13000, 4305, 13000, -119, 100, -299, -111, -928, -124, -28066, -3072, -3072, -395, 0, 0, -1024, 0, 0, 0, 0, 0, 0, 0, 0, 0, -1024, 0, 1, 25, 0, 73, 0, 0.0, 0.0, 0.0, 5.0, 2.0, 0.0, 0.0, 1.5, 0.0, 0.0, 1.0, 0.0, 0.0, 1.0, 0.0, 0.009999999776482582, 1.0, 0, 3, 0, 0, 50
49.91181333314065, -98.26869833335125, 67480, 165210.90625, 1.7705177068710327, 8.77064323425293, 2.5004377365112305, 0.083033986389637, 0.1324366182088852, 0.09462952613830566, 24.420007705688477, -5.5, 0.0, 91, 0, 0, 0, 0, -1024, 3.0, 4.800000190734863, 3.5, 1.600000023841858, 3.5, 1.0, 0.0, 4300, 13000, 4305, 13000, -119, 100, -299, -111, -928, -124, -28066, -3072, -3072, -395, 0, 0, -1024, 0, 0, 0, 0, 0, 0, 0, 0, 0, -1024, 0, 1, 25, 0, 73, 0, 0.0, 0.0, 0.0, 5.0, 2.0, 0.0, 0.0, 1.5, 0.0, 0.0, 1.0, 0.0, 0.0, 1.0, 0.0, 0.009999999776482582, 1.0, 0, 3, 0, 0, 50
49.91181333314065, -98.26869833335125, 68839, 165212.296875, 1.7533783912658691, 6.21999454498291, 4.38569974899292, 0.1449996381998062, 0.05008666217327118, 0.12464877963066101, 24.090015411376953, -4.1875, 0.0, 91, 0, 0, 0, 0, -1024, 3.0, 4.800000190734863, 3.5, 1.600000023841858, 3.5, 1.0, 0.0, 4300, 13000, 4305, 13000, -119, 100, -299, -111, -928, -124, -28066, -3072, -3072, -395, 0, 0, -1024, 0, 0, 0, 0, 0, 0, 0, 0, 0, -1024, 0, 1, 25, 0, 73, 0, 0.0, 0.0, 0.0, 5.0, 2.0, 0.0, 0.0, 1.5, 0.0, 0.0, 1.0, 0.0, 0.0, 1.0, 0.0, 0.009999999776482582, 1.0, 0, 3, 0, 0, 50
49.91181333314065, -98.26869833335125, 68839, 165212.296875, 1.7533783912658691, 6.21999454498291, 4.38569974899292, 0.1449996381998062, 0.05008666217327118, 0.12464877963066101, 24.090015411376953, -4.1875, 0.0, 91, 0, 0, 0, 0, -1024, 3.0, 4.800000190734863, 3.5, 1.600000023841858, 3.5, 1.0, 0.0, 4301, 13000, 4305, 13000, -118, 100, -299, -111, -28028, -124, -28070, -3072, -3072, -398, 0, 0, -1024, 0, 0, 0, 0, 0, 0, 0, 0, 0, -1024, 0, 1, 25, 0, 73, 0, 0.0, 0.0, 0.0, 5.0, 2.0, 0.0, 0.0, 1.5, 0.0, 0.0, 1.0, 0.0, 0.0, 1.0, 0.0, 0.009999999776482582, 1.0, 0, 3, 0, 0, 50
49.91181333314065, -98.26869833335125, 68839, 165212.296875, 1.7533783912658691, 6.21999454498291, 4.38569974899292, 0.1449996381998062, 0.05008666217327118, 0.12464877963066101, 24.090015411376953, -4.1875, 0.0, 91, 0, 0, 0, 0, -1024, 3.0, 4.800000190734863, 3.5, 1.600000023841858, 3.5, 1.0, 0.0, 4301, 13000, 4305, 13000, -118, 100, -299, -111, -28028, -124, -28070, -3072, -3072, -398, 0, 0, -1024, 0, 0, 0, 0, 0, 0, 0, 0, 0, -1024, 0, 1, 25, 0, 73, 0, 0.0, 0.0, 0.0, 5.0, 2.0, 0.0, 0.0, 1.5, 0.0, 0.0, 1.0, 0.0, 0.0, 1.0, 0.0, 0.009999999776482582, 1.0, 0, 3, 0, 0, 50
49.91181333314065, -98.26869833335125, 70198, 165213.703125, -0.5435894131660461, 7.587194919586182, 6.76854944229126, 0.01617598533630371, -0.07910585403442383, -0.09246823936700821, 24.540016174316406, -4.0625, 0.0, 91, 0, 0, 0, 0, -1024, 3.0, 4.800000190734863, 3.5, 1.600000023841858, 3.5, 1.0, 0.0, 4301, 13000, 4305, 13000, -118, 100, -299, -111, -28028, -124, -28070, -3072, -3072, -398, 0, 0, -1024, 0, 0, 0, 0, 0, 0, 0, 0, 0, -1024, 0, 1, 25, 0, 73, 0, 0.0, 0.0, 0.0, 5.0, 2.0, 0.0, 0.0, 1.5, 0.0, 0.0, 1.0, 0.0, 0.0, 1.0, 0.0, 0.009999999776482582, 1.0, 0, 3, 0, 0, 50
49.91181333314065, -98.26869833335125, 70198, 165213.703125, -0.5435894131660461, 7.587194919586182, 6.76854944229126, 0.01617598533630371, -0.07910585403442383, -0.09246823936700821, 24.540016174316406, -4.0625, 0.0, 91, 0, 0, 0, 0, -1024, 3.0, 4.800000190734863, 3.5, 1.600000023841858, 3.5, 1.0, 0.0, 4302, 13000, 4305, 13000, -119, 100, -2826, -114, -925, -121, -28070, -3072, -3072, -398, 0, 0, -1024, 0, 0, 0, 0, 0, 0, 0, 0, 0, -1024, 0, 1, 25, 0, 73, 0, 0.0, 0.0, 0.0, 5.0, 2.0, 0.0, 0.0, 1.5, 0.0, 0.0, 1.0, 0.0, 0.0, 1.0, 0.0, 0.009999999776482582, 1.0, 0, 3, 0, 0, 50
49.91181333314065, -98.26869833335125, 70198, 165213.703125, -0.5435894131660461, 7.587194919586182, 6.76854944229126, 0.01617598533630371, -0.07910585403442383, -0.09246823936700821, 24.540016174316406, -4.0625, 0.0, 91, 0, 0, 0, 0, -1024, 3.0, 4.800000190734863, 3.5, 1.600000023841858, 3.5, 1.0, 0.0, 4302, 13000, 4305, 13000, -119, 100, -2826, -114, -925, -121, -28070, -3072, -3072, -398, 0, 0, -1024, 0, 0, 0, 0, 0, 0, 0, 0, 0, -1024, 0, 1, 25, 0, 73, 0, 0.0, 0.0, 0.0, 5.0, 2.0, 0.0, 0.0, 1.5, 0.0, 0.0, 1.0, 0.0, 0.0, 1.0, 0.0, 0.009999999776482582, 1.0, 0, 3, 0, 0, 50
49.91181333314065, -98.26869833335125, 71556, 165215.09375, -1.6141514778137207, 7.368810653686523, 4.583864212036133, -0.04444103688001633, 0.00510221254080534, -0.079831063747406, 23.92500114440918, -3.875, 0.0, 91, 0, 0, 0, 0, -1024, 3.0, 4.800000190734863, 3.5, 1.600000023841858, 3.5, 1.0, 0.0, 4302, 13000, 4305, 13000, -119, 100, -2826, -114, -925, -121, -28070, -3072, -3072, -398, 0, 0, -1024, 0, 0, 0, 0, 0, 0, 0, 0, 0, -1024, 0, 1, 25, 0, 73, 0, 0.0, 0.0, 0.0, 5.0, 2.0, 0.0, 0.0, 1.5, 0.0, 0.0, 1.0, 0.0, 0.0, 1.0, 0.0, 0.009999999776482582, 1.0, 0, 3, 0, 0, 50
49.91181333314065, -98.26869833335125, 71556, 165215.09375, -1.6141514778137207, 7.368810653686523, 4.583864212036133, -0.04444103688001633, 0.00510221254080534, -0.079831063747406, 23.92500114440918, -3.875, 0.0, 91, 0, 0, 0, 0, -1024, 3.0, 4.800000190734863, 3.5, 1.600000023841858, 3.5, 1.0, 0.0, 4302, 13000, 4305, 13000, -122, 100, -299, -2634, -925, -121, -28073, -3072, -3072, -395, 0, 0, -1024, 0, 0, 0, 0, 0, 0, 0, 0, 0, -1024, 0, 1, 25, 0, 73, 0, 0.0, 0.0, 0.0, 5.0, 2.0, 0.0, 0.0, 1.5, 0.0, 0.0, 1.0, 0.0, 0.0, 1.0, 0.0, 0.009999999776482582, 1.0, 0, 3, 0, 0, 50
49.91181333314065, -98.26869833335125, 71556, 165215.09375, -1.6141514778137207, 7.368810653686523, 4.583864212036133, -0.04444103688001633, 0.00510221254080534, -0.079831063747406, 23.92500114440918, -3.875, 0.0, 91, 0, 0, 0, 0, -1024, 3.0, 4.800000190734863, 3.5, 1.600000023841858, 3.5, 1.0, 0.0, 4302, 13000, 4305, 13000, -122, 100, -299, -2634, -925, -121, -28073, -3072, -3072, -395, 0, 0, -1024, 0, 0, 0, 0, 0, 0, 0, 0, 0, -1024, 0, 1, 25, 0, 73, 0, 0.0, 0.0, 0.0, 5.0, 2.0, 0.0, 0.0, 1.5, 0.0, 0.0, 1.0, 0.0, 0.0, 1.0, 0.0, 0.009999999776482582, 1.0, 0, 3, 0, 0, 50
49.91181333314065, -98.26869833335125, 72915, 165216.5, 3.2423107624053955, 1.572690725326538, -1.9317197799682617, 0.12173470854759216, -0.4029636085033417, -0.26383939385414124, 25.079994201660156, 1.75, 0.0, 91, 0, 0, 0, 0, -1024, 3.0, 4.800000190734863, 3.5, 1.600000023841858, 3.5, 1.0, 0.0, 4302, 13000, 4305, 13000, -122, 100, -299, -2634, -925, -121, -28073, -3072, -3072, -395, 0, 0, -1024, 0, 0, 0, 0, 0, 0, 0, 0, 0, -1024, 0, 1, 25, 0, 73, 0, 0.0, 0.0, 0.0, 5.0, 2.0, 0.0, 0.0, 1.5, 0.0, 0.0, 1.0, 0.0, 0.0, 1.0, 0.0, 0.009999999776482582, 1.0, 0, 3, 0, 0, 50
49.91181333314065, -98.26869833335125, 72915, 165216.5, 3.2423107624053955, 1.572690725326538, -1.9317197799682617, 0.12173470854759216, -0.4029636085033417, -0.26383939385414124, 25.079994201660156, 1.75, 0.0, 91, 0, 0, 0, 0, -1024, 3.0, 4.800000190734863, 3.5, 1.600000023841858, 3.5, 1.0, 0.0, 4300, 13000, 4302, 13000, -118, 100, -299, -114, -925, -121, -28070, -3072, -3072, -398, 0, 0, -1024, 0, 0, 0, 0, 0, 0, 0, 0, 0, -1024, 0, 1, 25, 0, 73, 0, 0.0, 0.0, 0.0, 5.0, 2.0, 0.0, 0.0, 1.5, 0.0, 0.0, 1.0, 0.0, 0.0, 1.0, 0.0, 0.009999999776482582, 1.0, 0, 3, 0, 0, 50
49.91181333314065, -98.26869833335125, 72915, 165216.5, 3.2423107624053955, 1.572690725326538, -1.9317197799682617, 0.12173470854759216, -0.4029636085033417, -0.26383939385414124, 25.079994201660156, 1.75, 0.0, 91, 0, 0, 0, 0, -1024, 3.0, 4.800000190734863, 3.5, 1.600000023841858, 3.5, 1.0, 0.0, 4300, 13000, 4302, 13000, -118, 100, -299, -114, -925, -121, -28070, -3072, -3072, -398, 0, 0, -1024, 0, 0, 0, 0, 0, 0, 0, 0, 0, -1024, 0, 1, 25, 0, 73, 0, 0.0, 0.0, 0.0, 5.0, 2.0, 0.0, 0.0, 1.5, 0.0, 0.0, 1.0, 0.0, 0.0, 1.0, 0.0, 0.009999999776482582, 1.0, 0, 3, 0, 0, 50
49.91181333314065, -98.26869833335125, 74274, 165217.90625, 0.662204384803772, 0.4015815258026123, -0.6169567108154297, -0.022557439282536507, -0.08608914911746979, 0.12593725323677063, 24.779993057250977, 19.875, 0.0, 91, 0, 0, 0, 0, -1024, 3.0, 4.800000190734863, 3.5, 1.600000023841858, 3.5, 1.0, 0.0, 4300, 13000, 4302, 13000, -118, 100, -299, -114, -925, -121, -28070, -3072, -3072, -398, 0, 0, -1024, 0, 0, 0, 0, 0, 0, 0, 0, 0, -1024, 0, 1, 25, 0, 73, 0, 0.0, 0.0, 0.0, 5.0, 2.0, 0.0, 0.0, 1.5, 0.0, 0.0, 1.0, 0.0, 0.0, 1.0, 0.0, 0.009999999776482582, 1.0, 0, 3, 0, 0, 50
49.91181333314065, -98.26869833335125, 74274, 165217.90625, 0.662204384803772, 0.4015815258026123, -0.6169567108154297, -0.022557439282536507, -0.08608914911746979, 0.12593725323677063, 24.779993057250977, 19.875, 0.0, 91, 0, 0, 0, 0, -1024, 3.0, 4.800000190734863, 3.5, 1.600000023841858, 3.5, 1.0, 0.0, 4300, 13000, 4302, 13000, -119, 100, -303, -114, -928, -121, -30596, -3072, -3072, -395, 0, 0, -1024, 0, 0, 0, 0, 0, 0, 0, 0, 0, -1024, 0, 1, 25, 0, 73, 0, 0.0, 0.0, 0.0, 5.0, 2.0, 0.0, 0.0, 1.5, 0.0, 0.0, 1.0, 0.0, 0.0, 1.0, 0.0, 0.009999999776482582, 1.0, 0, 3, 0, 0, 53
49.91181333314065, -98.26869833335125, 74274, 165217.90625, 0.662204384803772, 0.4015815258026123, -0.6169567108154297, -0.022557439282536507, -0.08608914911746979, 0.12593725323677063, 24.779993057250977, 19.875, 0.0, 91, 0, 0, 0, 0, -1024, 3.0, 4.800000190734863, 3.5, 1.600000023841858, 3.5, 1.0, 0.0, 4300, 13000, 4302, 13000, -119, 100, -303, -114, -928, -121, -30596, -3072, -3072, -395, 0, 0, -1024, 0, 0, 0, 0, 0, 0, 0, 0, 0, -1024, 0, 1, 25, 0, 73, 0, 0.0, 0.0, 0.0, 5.0, 2.0, 0.0, 0.0, 1.5, 0.0, 0.0, 1.0, 0.0, 0.0, 1.0, 0.0, 0.009999999776482582, 1.0, 0, 3, 0, 0, 53
49.91181333314065, -98.26869833335125, 75632, 165219.296875, 0.8268262147903442, 0.5206736922264099, -1.1198678016662598, 0.000749932078178972, -0.01695391908288002, -0.03681192174553871, 24.629993438720703, 17.625, 0.0, 91, 0, 0, 0, 0, -1024, 3.0, 4.800000190734863, 3.5, 1.600000023841858, 3.5, 1.0, 0.0, 4300, 13000, 4302, 13000, -119, 100, -303, -114, -928, -121, -30596, -3072, -3072, -395, 0, 0, -1024, 0, 0, 0, 0, 0, 0, 0, 0, 0, -1024, 0, 1, 25, 0, 73, 0, 0.0, 0.0, 0.0, 5.0, 2.0, 0.0, 0.0, 1.5, 0.0, 0.0, 1.0, 0.0, 0.0, 1.0, 0.0, 0.009999999776482582, 1.0, 0, 3, 0, 0, 53
49.91181333314065, -98.26869833335125, 75632, 165219.296875, 0.8268262147903442, 0.5206736922264099, -1.1198678016662598, 0.000749932078178972, -0.01695391908288002, -0.03681192174553871, 24.629993438720703, 17.625, 0.0, 91, 0, 0, 0, 0, -1024, 3.0, 4.800000190734863, 3.5, 1.600000023841858, 3.5, 1.0, 0.0, 4301, 13000, 4302, 13000, -121, 100, -303, -114, -928, -121, -28073, -3072, -3072, -2925, 0, 0, -1024, 0, 0, 0, 0, 0, 0, 0, 0, 0, -1024, 0, 1, 25, 0, 73, 0, 0.0, 0.0, 0.0, 5.0, 2.0, 0.0, 0.0, 1.5, 0.0, 0.0, 1.0, 0.0, 0.0, 1.0, 0.0, 0.009999999776482582, 1.0, 0, 3, 0, 0, 53
49.91181333314065, -98.26869833335125, 75632, 165219.296875, 0.8268262147903442, 0.5206736922264099, -1.1198678016662598, 0.000749932078178972, -0.01695391908288002, -0.03681192174553871, 24.629993438720703, 17.625, 0.0, 91, 0, 0, 0, 0, -1024, 3.0, 4.800000190734863, 3.5, 1.600000023841858, 3.5, 1.0, 0.0, 4301, 13000, 4302, 13000, -121, 100, -303, -114, -928, -121, -28073, -3072, -3072, -2925, 0, 0, -1024, 0, 0, 0, 0, 0, 0, 0, 0, 0, -1024, 0, 1, 25, 0, 73, 0, 0.0, 0.0, 0.0, 5.0, 2.0, 0.0, 0.0, 1.5, 0.0, 0.0, 1.0, 0.0, 0.0, 1.0, 0.0, 0.009999999776482582, 1.0, 0, 3, 0, 0, 53
49.91181333314065, -98.26869833335125, 76991, 165220.703125, 0.7850227952003479, 0.17136725783348083, -1.392670750617981, 0.0005623167962767184, 0.014829625375568867, 0.01484675519168377, 24.825000762939453, 16.875, 0.0, 91, 0, 0, 0, 0, -1024, 3.0, 4.800000190734863, 3.5, 1.600000023841858, 3.5, 1.0, 0.0, 4301, 13000, 4302, 13000, -121, 100, -303, -114, -928, -121, -28073, -3072, -3072, -2925, 0, 0, -1024, 0, 0, 0, 0, 0, 0, 0, 0, 0, -1024, 0, 1, 25, 0, 73, 0, 0.0, 0.0, 0.0, 5.0, 2.0, 0.0, 0.0, 1.5, 0.0, 0.0, 1.0, 0.0, 0.0, 1.0, 0.0, 0.009999999776482582, 1.0, 0, 3, 0, 0, 53
49.91181333314065, -98.26869833335125, 76991, 165220.703125, 0.7850227952003479, 0.17136725783348083, -1.392670750617981, 0.0005623167962767184, 0.014829625375568867, 0.01484675519168377, 24.825000762939453, 16.875, 0.0, 91, 0, 0, 0, 0, -1024, 3.0, 4.800000190734863, 3.5, 1.600000023841858, 3.5, 1.0, 0.0, 4301, 13000, 4302, 13000, -118, 100, -299, -111, -928, -121, -28073, -3072, -3072, -395, 0, 0, -1024, 0, 0, 0, 0, 0, 0, 0, 0, 0, -1024, 0, 1, 25, 0, 73, 0, 0.0, 0.0, 0.0, 5.0, 2.0, 0.0, 0.0, 1.5, 0.0, 0.0, 1.0, 0.0, 0.0, 1.0, 0.0, 0.009999999776482582, 1.0, 0, 3, 0, 0, 53
49.91181333314065, -98.26869833335125, 76991, 165220.703125, 0.7850227952003479, 0.17136725783348083, -1.392670750617981, 0.0005623167962767184, 0.014829625375568867, 0.01484675519168377, 24.825000762939453, 16.875, 0.0, 91, 0, 0, 0, 0, -1024, 3.0, 4.800000190734863, 3.5, 1.600000023841858, 3.5, 1.0, 0.0, 4301, 13000, 4302, 13000, -118, 100, -299, -111, -928, -121, -28073, -3072, -3072, -395, 0, 0, -1024, 0, 0, 0, 0, 0, 0, 0, 0, 0, -1024, 0, 1, 25, 0, 73, 0, 0.0, 0.0, 0.0, 5.0, 2.0, 0.0, 0.0, 1.5, 0.0, 0.0, 1.0, 0.0, 0.0, 1.0, 0.0, 0.009999999776482582, 1.0, 0, 3, 0, 0, 53
49.91181333314065, -98.26869833335125, 78349, 165222.09375, 0.7751696705818176, 0.12577643990516663, -1.49312162399292, 0.0019469214603304863, 0.008778253570199013, 0.00459718145430088, 24.375001907348633, 17.375, 0.0, 91, 0, 0, 0, 0, -1024, 3.0, 4.800000190734863, 3.5, 1.600000023841858, 3.5, 1.0, 0.0, 4301, 13000, 4302, 13000, -118, 100, -299, -111, -928, -121, -28073, -3072, -3072, -395, 0, 0, -1024, 0, 0, 0, 0, 0, 0, 0, 0, 0, -1024, 0, 1, 25, 0, 73, 0, 0.0, 0.0, 0.0, 5.0, 2.0, 0.0, 0.0, 1.5, 0.0, 0.0, 1.0, 0.0, 0.0, 1.0, 0.0, 0.009999999776482582, 1.0, 0, 3, 0, 0, 53
49.91181333314065, -98.26869833335125, 78349, 165222.09375, 0.7751696705818176, 0.12577643990516663, -1.49312162399292, 0.0019469214603304863, 0.008778253570199013, 0.00459718145430088, 24.375001907348633, 17.375, 0.0, 91, 0, 0, 0, 0, -1024, 3.0, 4.800000190734863, 3.5, 1.600000023841858, 3.5, 1.0, 0.0, 4302, 13000, 4302, 13000, -120, 100, -299, -111, -928, -124, -28073, -3072, -3072, -398, 0, 0, -1024, 0, 0, 0, 0, 0, 0, 0, 0, 0, -1024, 0, 1, 25, 0, 73, 0, 0.0, 0.0, 0.0, 5.0, 2.0, 0.0, 0.0, 1.5, 0.0, 0.0, 1.0, 0.0, 0.0, 1.0, 0.0, 0.009999999776482582, 1.0, 0, 3, 0, 0, 53
49.91181333314065, -98.26869833335125, 78349, 165222.09375, 0.7751696705818176, 0.12577643990516663, -1.49312162399292, 0.0019469214603304863, 0.008778253570199013, 0.00459718145430088, 24.375001907348633, 17.375, 0.0, 91, 0, 0, 0, 0, -1024, 3.0, 4.800000190734863, 3.5, 1.600000023841858, 3.5, 1.0, 0.0, 4302, 13000, 4302, 13000, -120, 100, -299, -111, -928, -124, -28073, -3072, -3072, -398, 0, 0, -1024, 0, 0, 0, 0, 0, 0, 0, 0, 0, -1024, 0, 1, 25, 0, 73, 0, 0.0, 0.0, 0.0, 5.0, 2.0, 0.0, 0.0, 1.5, 0.0, 0.0, 1.0, 0.0, 0.0, 1.0, 0.0, 0.009999999776482582, 1.0, 0, 3, 0, 0, 57
49.91181333314065, -98.26869833335125, 79708, 165223.5, 0.7743887901306152, 0.1526436060667038, -1.5919547080993652, 0.0004801510367542505, 0.0032800333574414253, 0.00024998048320412636, 24.765016555786133, 18.125, 0.0, 91, 0, 0, 0, 0, -1024, 3.0, 4.800000190734863, 3.5, 1.600000023841858, 3.5, 1.0, 0.0, 4302, 13000, 4302, 13000, -120, 100, -299, -111, -928, -124, -28073, -3072, -3072, -398, 0, 0, -1024, 0, 0, 0, 0, 0, 0, 0, 0, 0, -1024, 0, 1, 25, 0, 73, 0, 0.0, 0.0, 0.0, 5.0, 2.0, 0.0, 0.0, 1.5, 0.0, 0.0, 1.0, 0.0, 0.0, 1.0, 0.0, 0.009999999776482582, 1.0, 0, 3, 0, 0, 57
49.91181333314065, -98.26869833335125, 79708, 165223.5, 0.7743887901306152, 0.1526436060667038, -1.5919547080993652, 0.0004801510367542505, 0.0032800333574414253, 0.00024998048320412636, 24.765016555786133, 18.125, 0.0, 91, 0, 0, 0, 0, -1024, 3.0, 4.800000190734863, 3.5, 1.600000023841858, 3.5, 1.0, 0.0, 4302, 13000, 4302, 13000, -120, 100, -299, -111, -925, -124, -28070, -3072, -3072, -398, 0, 0, -1024, 0, 0, 0, 0, 0, 0, 0, 0, 0, -1024, 0, 1, 25, 0, 73, 0, 0.0, 0.0, 0.0, 5.0, 2.0, 0.0, 0.0, 1.5, 0.0, 0.0, 1.0, 0.0, 0.0, 1.0, 0.0, 0.009999999776482582, 1.0, 0, 3, 0, 0, 57
49.91181333314065, -98.26869833335125, 79708, 165223.5, 0.7743887901306152, 0.1526436060667038, -1.5919547080993652, 0.0004801510367542505, 0.0032800333574414253, 0.00024998048320412636, 24.765016555786133, 18.125, 0.0, 91, 0, 0, 0, 0, -1024, 3.0, 4.800000190734863, 3.5, 1.600000023841858, 3.5, 1.0, 0.0, 4302, 13000, 4302, 13000, -120, 100, -299, -111, -925, -124, -28070, -3072, -3072, -398, 0, 0, -1024, 0, 0, 0, 0, 0, 0, 0, 0, 0, -1024, 0, 1, 25, 0, 73, 0, 0.0, 0.0, 0.0, 5.0, 2.0, 0.0, 0.0, 1.5, 0.0, 0.0, 1.0, 0.0, 0.0, 1.0, 0.0, 0.009999999776482582, 1.0, 0, 3, 0, 0, 57
49.91181333314065, -98.26869833335125, 81067, 165225.0, 0.7699929475784302, 0.13287393748760223, -1.6730822324752808, -2.9556103982031345e-05, 0.002553097438067198, 0.0010893731378018856, 24.615015029907227, 17.25, 0.0, 91, 0, 0, 0, 0, -1024, 3.0, 4.800000190734863, 3.5, 1.600000023841858, 3.5, 1.0, 0.0, 4302, 13000, 4302, 13000, -120, 100, -299, -111, -925, -124, -28070, -3072, -3072, -398, 0, 0, -1024, 0, 0, 0, 0, 0, 0, 0, 0, 0, -1024, 0, 1, 25, 0, 73, 0, 0.0, 0.0, 0.0, 5.0, 2.0, 0.0, 0.0, 1.5, 0.0, 0.0, 1.0, 0.0, 0.0, 1.0, 0.0, 0.009999999776482582, 1.0, 0, 3, 0, 0, 57
49.91181333314065, -98.26869833335125, 81067, 165225.0, 0.7699929475784302, 0.13287393748760223, -1.6730822324752808, -2.9556103982031345e-05, 0.002553097438067198, 0.0010893731378018856, 24.615015029907227, 17.25, 0.0, 91, 0, 0, 0, 0, -1024, 3.0, 4.800000190734863, 3.5, 1.600000023841858, 3.5, 1.0, 0.0, 4303, 13000, 4302, 13000, -118, 100, -303, -114, -925, -121, -28073, -3072, -3072, -395, 0, 0, -1024, 0, 0, 0, 0, 0, 0, 0, 0, 0, -1024, 0, 1, 25, 0, 73, 0, 0.0, 0.0, 0.0, 5.0, 2.0, 0.0, 0.0, 1.5, 0.0, 0.0, 1.0, 0.0, 0.0, 1.0, 0.0, 0.009999999776482582, 1.0, 0, 3, 0, 0, 57
49.91181333314065, -98.26869833335125, 81067, 165225.0, 0.7699929475784302, 0.13287393748760223, -1.6730822324752808, -2.9556103982031345e-05, 0.002553097438067198, 0.0010893731378018856, 24.615015029907227, 17.25, 0.0, 91, 0, 0, 0, 0, -1024, 3.0, 4.800000190734863, 3.5, 1.600000023841858, 3.5, 1.0, 0.0, 4303, 13000, 4302, 13000, -118, 100, -303, -114, -925, -121, -28073, -3072, -3072, -395, 0, 0, -1024, 0, 0, 0, 0, 0, 0, 0, 0, 0, -1024, 0, 1, 25, 0, 73, 0, 0.0, 0.0, 0.0, 5.0, 2.0, 0.0, 0.0, 1.5, 0.0, 0.0, 1.0, 0.0, 0.0, 1.0, 0.0, 0.009999999776482582, 1.0, 0, 3, 0, 0, 57
49.91181333314065, -98.26869833335125, 82425, 165226.40625, 0.7666223049163818, 0.12624207139015198, -1.7422730922698975, 0.0006026264163665473, 0.0033402438275516033, -0.0006809867918491364, 24.540016174316406, 16.5625, 0.0, 91, 0, 0, 0, 0, -1024, 3.0, 4.800000190734863, 3.5, 1.600000023841858, 3.5, 1.0, 0.0, 4303, 13000, 4302, 13000, -118, 100, -303, -114, -925, -121, -28073, -3072, -3072, -395, 0, 0, -1024, 0, 0, 0, 0, 0, 0, 0, 0, 0, -1024, 0, 1, 25, 0, 73, 0, 0.0, 0.0, 0.0, 5.0, 2.0, 0.0, 0.0, 1.5, 0.0, 0.0, 1.0, 0.0, 0.0, 1.0, 0.0, 0.009999999776482582, 1.0, 0, 3, 0, 0, 57
49.91181333314065, -98.26869833335125, 82425, 165226.40625, 0.7666223049163818, 0.12624207139015198, -1.7422730922698975, 0.0006026264163665473, 0.0033402438275516033, -0.0006809867918491364, 24.540016174316406, 16.5625, 0.0, 91, 0, 0, 0, 0, -1024, 3.0, 4.800000190734863, 3.5, 1.600000023841858, 3.5, 1.0, 0.0, 4304, 13000, 4302, 13000, -117, 100, -303, -114, -925, -121, -28073, -3072, -3072, -398, 0, 0, -1024, 0, 0, 0, 0, 0, 0, 0, 0, 0, -1024, 0, 1, 25, 0, 73, 0, 0.0, 0.0, 0.0, 5.0, 2.0, 0.0, 0.0, 1.5, 0.0, 0.0, 1.0, 0.0, 0.0, 1.0, 0.0, 0.009999999776482582, 1.0, 0, 3, 0, 0, 57
49.91181333314065, -98.26869833335125, 82425, 165226.40625, 0.7666223049163818, 0.12624207139015198, -1.7422730922698975, 0.0006026264163665473, 0.0033402438275516033, -0.0006809867918491364, 24.540016174316406, 16.5625, 0.0, 91, 0, 0, 0, 0, -1024, 3.0, 4.800000190734863, 3.5, 1.600000023841858, 3.5, 1.0, 0.0, 4304, 13000, 4302, 13000, -117, 100, -303, -114, -925, -121, -28073, -3072, -3072, -398, 0, 0, -1024, 0, 0, 0, 0, 0, 0, 0, 0, 0, -1024, 0, 1, 25, 0, 73, 0, 0.0, 0.0, 0.0, 5.0, 2.0, 0.0, 0.0, 1.5, 0.0, 0.0, 1.0, 0.0, 0.0, 1.0, 0.0, 0.009999999776482582, 1.0, 0, 3, 0, 0, 57
49.91181333314065, -98.26869833335125, 83784, 165227.796875, 0.7588784098625183, 0.10592679679393768, -1.8073443174362183, 0.0010043162619695067, 0.0016432097181677818, -0.0017191404476761818, 25.05000114440918, 15.75, 0.0, 91, 0, 0, 0, 0, -1024, 3.0, 4.800000190734863, 3.5, 1.600000023841858, 3.5, 1.0, 0.0, 4304, 13000, 4302, 13000, -117, 100, -303, -114, -925, -121, -28073, -3072, -3072, -398, 0, 0, -1024, 0, 0, 0, 0, 0, 0, 0, 0, 0, -1024, 0, 1, 25, 0, 73, 0, 0.0, 0.0, 0.0, 5.0, 2.0, 0.0, 0.0, 1.5, 0.0, 0.0, 1.0, 0.0, 0.0, 1.0, 0.0, 0.009999999776482582, 1.0, 0, 3, 0, 0, 55
49.91181333314065, -98.26869833335125, 83784, 165227.796875, 0.7588784098625183, 0.10592679679393768, -1.8073443174362183, 0.0010043162619695067, 0.0016432097181677818, -0.0017191404476761818, 25.05000114440918, 15.75, 0.0, 91, 0, 0, 0, 0, -1024, 3.0, 4.800000190734863, 3.5, 1.600000023841858, 3.5, 1.0, 0.0, 4304, 13000, 4302, 13000, -124, 100, -303, -114, -925, -121, -28073, -3072, -3072, -398, 0, 0, -1024, 0, 0, 0, 0, 0, 0, 0, 0, 0, -1024, 0, 1, 25, 0, 73, 0, 0.0, 0.0, 0.0, 5.0, 2.0, 0.0, 0.0, 1.5, 0.0, 0.0, 1.0, 0.0, 0.0, 1.0, 0.0, 0.009999999776482582, 1.0, 0, 3, 0, 0, 55
49.91181333314065, -98.26869833335125, 83784, 165227.796875, 0.7588784098625183, 0.10592679679393768, -1.8073443174362183, 0.0010043162619695067, 0.0016432097181677818, -0.0017191404476761818, 25.05000114440918, 15.75, 0.0, 91, 0, 0, 0, 0, -1024, 3.0, 4.800000190734863, 3.5, 1.600000023841858, 3.5, 1.0, 0.0, 4304, 13000, 4302, 13000, -124, 100, -303, -114, -925, -121, -28073, -3072, -3072, -398, 0, 0, -1024, 0, 0, 0, 0, 0, 0, 0, 0, 0, -1024, 0, 1, 25, 0, 73, 0, 0.0, 0.0, 0.0, 5.0, 2.0, 0.0, 0.0, 1.5, 0.0, 0.0, 1.0, 0.0, 0.0, 1.0, 0.0, 0.009999999776482582, 1.0, 0, 3, 0, 0, 55
49.91181333314065, -98.26869833335125, 85142, 165229.203125, 0.7638788223266602, 0.2223414033651352, -1.812820315361023, 0.010595837607979774, 0.03933177888393402, 0.053734906017780304, 23.74500846862793, 17.125, 0.0, 91, 0, 0, 0, 0, -1024, 3.0, 4.800000190734863, 3.5, 1.600000023841858, 3.5, 1.0, 0.0, 4304, 13000, 4302, 13000, -124, 100, -303, -114, -925, -121, -28073, -3072, -3072, -398, 0, 0, -1024, 0, 0, 0, 0, 0, 0, 0, 0, 0, -1024, 0, 1, 25, 0, 73, 0, 0.0, 0.0, 0.0, 5.0, 2.0, 0.0, 0.0, 1.5, 0.0, 0.0, 1.0, 0.0, 0.0, 1.0, 0.0, 0.009999999776482582, 1.0, 0, 3, 0, 0, 55
49.91181333314065, -98.26869833335125, 85142, 165229.203125, 0.7638788223266602, 0.2223414033651352, -1.812820315361023, 0.010595837607979774, 0.03933177888393402, 0.053734906017780304, 23.74500846862793, 17.125, 0.0, 91, 0, 0, 0, 0, -1024, 3.0, 4.800000190734863, 3.5, 1.600000023841858, 3.5, 1.0, 0.0, 4305, 13000, 4302, 13000, -119, 100, -299, -111, -28028, -121, -28066, -3072, -3072, -395, 0, 0, -1024, 0, 0, 0, 0, 0, 0, 0, 0, 0, -1024, 0, 1, 25, 0, 73, 0, 0.0, 0.0, 0.0, 5.0, 2.0, 0.0, 0.0, 1.5, 0.0, 0.0, 1.0, 0.0, 0.0, 1.0, 0.0, 0.009999999776482582, 1.0, 0, 3, 0, 0, 55
49.91181333314065, -98.26869833335125, 85142, 165229.203125, 0.7638788223266602, 0.2223414033651352, -1.812820315361023, 0.010595837607979774, 0.03933177888393402, 0.053734906017780304, 23.74500846862793, 17.125, 0.0, 91, 0, 0, 0, 0, -1024, 3.0, 4.800000190734863, 3.5, 1.600000023841858, 3.5, 1.0, 0.0, 4305, 13000, 4302, 13000, -119, 100, -299, -111, -28028, -121, -28066, -3072, -3072, -395, 0, 0, -1024, 0, 0, 0, 0, 0, 0, 0, 0, 0, -1024, 0, 1, 25, 0, 73, 0, 0.0, 0.0, 0.0, 5.0, 2.0, 0.0, 0.0, 1.5, 0.0, 0.0, 1.0, 0.0, 0.0, 1.0, 0.0, 0.009999999776482582, 1.0, 0, 3, 0, 0, 55
49.91181333314065, -98.26869833335125, 86501, 165230.59375, 0.7668827176094055, -0.03797895088791847, -2.080333709716797, 0.006633485667407513, 0.005642230156809092, 0.0070211198180913925, 24.645008087158203, 14.375, 0.0, 91, 0, 0, 0, 0, -1024, 3.0, 4.800000190734863, 3.5, 1.600000023841858, 3.5, 1.0, 0.0, 4305, 13000, 4302, 13000, -119, 100, -299, -111, -28028, -121, -28066, -3072, -3072, -395, 0, 0, -1024, 0, 0, 0, 0, 0, 0, 0, 0, 0, -1024, 0, 1, 25, 0, 73, 0, 0.0, 0.0, 0.0, 5.0, 2.0, 0.0, 0.0, 1.5, 0.0, 0.0, 1.0, 0.0, 0.0, 1.0, 0.0, 0.009999999776482582, 1.0, 0, 3, 0, 0, 55
49.91181333314065, -98.26869833335125, 86501, 165230.59375, 0.7668827176094055, -0.03797895088791847, -2.080333709716797, 0.006633485667407513, 0.005642230156809092, 0.0070211198180913925, 24.645008087158203, 14.375, 0.0, 91, 0, 0, 0, 0, -1024, 3.0, 4.800000190734863, 3.5, 1.600000023841858, 3.5, 1.0, 0.0, 4305, 13000, 4302, 13000, -120, 100, -2829, -111, -925, -121, -28070, -3072, -3072, -395, 0, 0, -1024, 0, 0, 0, 0, 0, 0, 0, 0, 0, -1024, 0, 1, 26, 0, 73, 0, 0.0, 0.0, 0.0, 5.0, 2.0, 0.0, 0.0, 1.5, 0.0, 0.0, 1.0, 0.0, 0.0, 1.0, 0.0, 0.009999999776482582, 1.0, 0, 3, 0, 0, 55
49.91181333314065, -98.26869833335125, 86501, 165230.59375, 0.7668827176094055, -0.03797895088791847, -2.080333709716797, 0.006633485667407513, 0.005642230156809092, 0.0070211198180913925, 24.645008087158203, 14.375, 0.0, 91, 0, 0, 0, 0, -1024, 3.0, 4.800000190734863, 3.5, 1.600000023841858, 3.5, 1.0, 0.0, 4305, 13000, 4302, 13000, -120, 100, -2829, -111, -925, -121, -28070, -3072, -3072, -395, 0, 0, -1024, 0, 0, 0, 0, 0, 0, 0, 0, 0, -1024, 0, 1, 26, 0, 73, 0, 0.0, 0.0, 0.0, 5.0, 2.0, 0.0, 0.0, 1.5, 0.0, 0.0, 1.0, 0.0, 0.0, 1.0, 0.0, 0.009999999776482582, 1.0, 0, 3, 0, 0, 55
49.91181333314065, -98.26869833335125, 87860, 165232.0, 0.7716538310050964, 0.05681421235203743, -2.2647650241851807, 0.005611756816506386, 0.012503334321081638, -0.042048707604408264, 24.900001525878906, 18.3125, 0.0, 91, 0, 0, 0, 0, -1024, 3.0, 4.800000190734863, 3.5, 1.600000023841858, 3.5, 1.0, 0.0, 4305, 13000, 4302, 13000, -120, 100, -2829, -111, -925, -121, -28070, -3072, -3072, -395, 0, 0, -1024, 0, 0, 0, 0, 0, 0, 0, 0, 0, -1024, 0, 1, 26, 0, 73, 0, 0.0, 0.0, 0.0, 5.0, 2.0, 0.0, 0.0, 1.5, 0.0, 0.0, 1.0, 0.0, 0.0, 1.0, 0.0, 0.009999999776482582, 1.0, 0, 3, 0, 0, 55
49.91181333314065, -98.26869833335125, 87860, 165232.0, 0.7716538310050964, 0.05681421235203743, -2.2647650241851807, 0.005611756816506386, 0.012503334321081638, -0.042048707604408264, 24.900001525878906, 18.3125, 0.0, 91, 0, 0, 0, 0, -1024, 3.0, 4.800000190734863, 3.5, 1.600000023841858, 3.5, 1.0, 0.0, 4306, 13000, 4302, 13000, -121, 100, -299, -2634, -925, -121, -28063, -3072, -3072, -395, 0, 0, -1024, 0, 0, 0, 0, 0, 0, 0, 0, 0, -1024, 0, 1, 26, 0, 73, 0, 0.0, 0.0, 0.0, 5.0, 2.0, 0.0, 0.0, 1.5, 0.0, 0.0, 1.0, 0.0, 0.0, 1.0, 0.0, 0.009999999776482582, 1.0, 0, 3, 0, 0, 64
49.91181333314065, -98.26869833335125, 87860, 165232.0, 0.7716538310050964, 0.05681421235203743, -2.2647650241851807, 0.005611756816506386, 0.012503334321081638, -0.042048707604408264, 24.900001525878906, 18.3125, 0.0, 91, 0, 0, 0, 0, -1024, 3.0, 4.800000190734863, 3.5, 1.600000023841858, 3.5, 1.0, 0.0, 4306, 13000, 4302, 13000, -121, 100, -299, -2634, -925, -121, -28063, -3072, -3072, -395, 0, 0, -1024, 0, 0, 0, 0, 0, 0, 0, 0, 0, -1024, 0, 1, 26, 0, 73, 0, 0.0, 0.0, 0.0, 5.0, 2.0, 0.0, 0.0, 1.5, 0.0, 0.0, 1.0, 0.0, 0.0, 1.0, 0.0, 0.009999999776482582, 1.0, 0, 3, 0, 0, 64
49.91181333314065, -98.26869833335125, 89218, 165233.40625, 0.7210334539413452, 0.2091379016637802, -2.335354804992676, 0.007239938713610172, 0.012894075363874435, -0.013588767498731613, 24.570009231567383, 17.9375, 0.0, 91, 0, 0, 0, 0, -1024, 3.0, 4.800000190734863, 3.5, 1.600000023841858, 3.5, 1.0, 0.0, 4306, 13000, 4302, 13000, -121, 100, -299, -2634, -925, -121, -28063, -3072, -3072, -395, 0, 0, -1024, 0, 0, 0, 0, 0, 0, 0, 0, 0, -1024, 0, 1, 26, 0, 73, 0, 0.0, 0.0, 0.0, 5.0, 2.0, 0.0, 0.0, 1.5, 0.0, 0.0, 1.0, 0.0, 0.0, 1.0, 0.0, 0.009999999776482582, 1.0, 0, 3, 0, 0, 64
49.91181333314065, -98.26869833335125, 89218, 165233.40625, 0.7210334539413452, 0.2091379016637802, -2.335354804992676, 0.007239938713610172, 0.012894075363874435, -0.013588767498731613, 24.570009231567383, 17.9375, 0.0, 91, 0, 0, 0, 0, -1024, 3.0, 4.800000190734863, 3.5, 1.600000023841858, 3.5, 1.0, 0.0, 4306, 13000, 4302, 13000, 89, 100, -306, -111, -928, -124, -28076, -3072, -3072, -395, 0, 0, -1024, 0, 0, 0, 0, 0, 0, 0, 0, 0, -1024, 0, 1, 26, 0, 73, 0, 0.0, 0.0, 0.0, 5.0, 2.0, 0.0, 0.0, 1.5, 0.0, 0.0, 1.0, 0.0, 0.0, 1.0, 0.0, 0.009999999776482582, 1.0, 0, 3, 0, 0, 64
49.91181333314065, -98.26869833335125, 89218, 165233.40625, 0.7210334539413452, 0.2091379016637802, -2.335354804992676, 0.007239938713610172, 0.012894075363874435, -0.013588767498731613, 24.570009231567383, 17.9375, 0.0, 91, 0, 0, 0, 0, -1024, 3.0, 4.800000190734863, 3.5, 1.600000023841858, 3.5, 1.0, 0.0, 4306, 13000, 4302, 13000, 89, 100, -306, -111, -928, -124, -28076, -3072, -3072, -395, 0, 0, -1024, 0, 0, 0, 0, 0, 0, 0, 0, 0, -1024, 0, 1, 26, 0, 73, 0, 0.0, 0.0, 0.0, 5.0, 2.0, 0.0, 0.0, 1.5, 0.0, 0.0, 1.0, 0.0, 0.0, 1.0, 0.0, 0.009999999776482582, 1.0, 0, 3, 0, 0, 64
49.91181333314065, -98.26869833335125, 90577, 165234.796875, 0.7724059224128723, 0.020233262330293655, -2.6944491863250732, 0.008083483204245567, 0.032902371138334274, 0.004452789202332497, 24.915016174316406, 12.875, 0.0, 91, 0, 0, 0, 0, -1024, 3.0, 4.800000190734863, 3.5, 1.600000023841858, 3.5, 1.0, 0.0, 4306, 13000, 4302, 13000, 89, 100, -306, -111, -928, -124, -28076, -3072, -3072, -395, 0, 0, -1024, 0, 0, 0, 0, 0, 0, 0, 0, 0, -1024, 0, 1, 26, 0, 73, 0, 0.0, 0.0, 0.0, 5.0, 2.0, 0.0, 0.0, 1.5, 0.0, 0.0, 1.0, 0.0, 0.0, 1.0, 0.0, 0.009999999776482582, 1.0, 0, 3, 0, 0, 64
49.91181333314065, -98.26869833335125, 90577, 165234.796875, 0.7724059224128723, 0.020233262330293655, -2.6944491863250732, 0.008083483204245567, 0.032902371138334274, 0.004452789202332497, 24.915016174316406, 12.875, 0.0, 91, 0, 0, 0, 0, -1024, 3.0, 4.800000190734863, 3.5, 1.600000023841858, 3.5, 1.0, 0.0, 4307, 13000, 4302, 13000, 114, 100, -303, 389, -944, -851, -30587, -3072, -3072, -395, 0, 0, -1024, 0, 0, 0, 0, 0, 0, 0, 0, 0, -1024, 0, 1, 25, 0, 73, 0, 0.0, 0.0, 0.0, 5.0, 2.0, 0.0, 0.0, 1.5, 0.0, 0.0, 1.0, 0.0, 0.0, 1.0, 0.0, 0.009999999776482582, 1.0, 0, 3, 0, 0, 64
49.91181333314065, -98.26869833335125, 90577, 165234.796875, 0.7724059224128723, 0.020233262330293655, -2.6944491863250732, 0.008083483204245567, 0.032902371138334274, 0.004452789202332497, 24.915016174316406, 12.875, 0.0, 91, 0, 0, 0, 0, -1024, 3.0, 4.800000190734863, 3.5, 1.600000023841858, 3.5, 1.0, 0.0, 4307, 13000, 4302, 13000, 114, 100, -303, 389, -944, -851, -30587, -3072, -3072, -395, 0, 0, -1024, 0, 0, 0, 0, 0, 0, 0, 0, 0, -1024, 0, 1, 25, 0, 73, 0, 0.0, 0.0, 0.0, 5.0, 2.0, 0.0, 0.0, 1.5, 0.0, 0.0, 1.0, 0.0, 0.0, 1.0, 0.0, 0.009999999776482582, 1.0, 0, 3, 0, 0, 64
49.91181333314065, -98.26869833335125, 91935, 165236.203125, 0.7731162309646606, -0.07958033680915833, -2.9750771522521973, -0.008520390838384628, 0.017211265861988068, -0.02501271851360798, 20.6400146484375, 14.625, 0.0, 91, 0, 0, 0, 0, -1024, 3.0, 4.800000190734863, 3.5, 1.600000023841858, 3.5, 1.0, 0.0, 4307, 13000, 4302, 13000, 114, 100, -303, 389, -944, -851, -30587, -3072, -3072, -395, 0, 0, -1024, 0, 0, 0, 0, 0, 0, 0, 0, 0, -1024, 0, 1, 25, 0, 73, 0, 0.0, 0.0, 0.0, 5.0, 2.0, 0.0, 0.0, 1.5, 0.0, 0.0, 1.0, 0.0, 0.0, 1.0, 0.0, 0.009999999776482582, 1.0, 0, 3, 0, 0, 64
49.91181333314065, -98.26869833335125, 91935, 165236.203125, 0.7731162309646606, -0.07958033680915833, -2.9750771522521973, -0.008520390838384628, 0.017211265861988068, -0.02501271851360798, 20.6400146484375, 14.625, 0.0, 91, 0, 0, 0, 0, -1024, 3.0, 4.800000190734863, 3.5, 1.600000023841858, 3.5, 1.0, 0.0, 4308, 13000, 4302, 13000, 109, 100, -293, -108, -950, -124, -28066, -3072, -3072, -2915, 0, 0, -1024, 0, 0, 0, 0, 0, 0, 0, 0, 0, -1024, 0, 1, 25, 0, 73, 0, 0.0, 0.0, 0.0, 5.0, 2.0, 0.0, 0.0, 1.5, 0.0, 0.0, 1.0, 0.0, 0.0, 1.0, 0.0, 0.009999999776482582, 1.0, 0, 3, 0, 0, 64
49.91181333314065, -98.26869833335125, 91935, 165236.203125, 0.7731162309646606, -0.07958033680915833, -2.9750771522521973, -0.008520390838384628, 0.017211265861988068, -0.02501271851360798, 20.6400146484375, 14.625, 0.0, 91, 0, 0, 0, 0, -1024, 3.0, 4.800000190734863, 3.5, 1.600000023841858, 3.5, 1.0, 0.0, 4308, 13000, 4302, 13000, 109, 100, -293, -108, -950, -124, -28066, -3072, -3072, -2915, 0, 0, -1024, 0, 0, 0, 0, 0, 0, 0, 0, 0, -1024, 0, 1, 25, 0, 73, 0, 0.0, 0.0, 0.0, 5.0, 2.0, 0.0, 0.0, 1.5, 0.0, 0.0, 1.0, 0.0, 0.0, 1.0, 0.0, 0.009999999776482582, 1.0, 0, 3, 0, 0, 75
49.91181333314065, -98.26869833335125, 93294, 165237.703125, 0.6046922206878662, 0.01629539020359516, -2.717700958251953, 0.009520122781395912, -0.003050548955798149, 0.009558739140629768, 23.220008850097656, 16.4375, 0.0, 91, 0, 0, 0, 0, -1024, 3.0, 4.800000190734863, 3.5, 1.600000023841858, 3.5, 1.0, 0.0, 4308, 13000, 4302, 13000, 109, 100, -293, -108, -950, -124, -28066, -3072, -3072, -2915, 0, 0, -1024, 0, 0, 0, 0, 0, 0, 0, 0, 0, -1024, 0, 1, 25, 0, 73, 0, 0.0, 0.0, 0.0, 5.0, 2.0, 0.0, 0.0, 1.5, 0.0, 0.0, 1.0, 0.0, 0.0, 1.0, 0.0, 0.009999999776482582, 1.0, 0, 3, 0, 0, 75
